[
  {
    "model": "ports.port",
    "pk": 1,
    "fields": {
      "name": "Rotterdam",
      "country": "Netherlands",
      "latitude": 51.9473,
      "longitude": 4.1442,
      "timezone": 1
    }
  },
  {
    "model": "ports.port",
    "pk": 2,
    "fields": {
      "name": "Antwerp",
      "country": "Belgium",
      "latitude": 51.2584,
      "longitude": 4.3710,
      "timezone": 1
    }
  },
  {
    "model": "ports.port",
    "pk": 3,
    "fields": {
      "name": "Hamburg",
      "country": "Germany",
      "latitude": 53.5453,
      "longitude": 9.9953,
      "timezone": 1
    }
  },
  {
    "model": "ports.port",
    "pk": 4,
    "fields": {
      "name": "Valencia",
      "country": "Spain",
      "latitude": 39.4483,
      "longitude": -0.3075,
      "timezone": 1
    }
  },
  {
    "model": "ports.port",
    "pk": 5,
    "fields": {
      "name": "Piraeus",
      "country": "Greece",
      "latitude": 37.9380,
      "longitude": 23.6341,
      "timezone": 2
    }
  },
  {
    "model": "ports.port",
    "pk": 6,
    "fields": {
      "name": "Algeciras",
      "country": "Spain",
      "latitude": 36.1309,
      "longitude": -5.4364,
      "timezone": 1
    }
  },
  {
    "model": "ports.port",
    "pk": 7,
    "fields": {
      "name": "Bremerhaven",
      "country": "Germany",
      "latitude": 53.5667,
      "longitude": 8.5833,
      "timezone": 1
    }
  },
  {
    "model": "ports.port",
    "pk": 8,
    "fields": {
      "name": "Felixstowe",
      "country": "United Kingdom",
      "latitude": 51.9517,
      "longitude": 1.3250,
      "timezone": 0
    }
  },
  {
    "model": "ports.port",
    "pk": 9,
    "fields": {
      "name": "Gioia Tauro",
      "country": "Italy",
      "latitude": 38.4422,
      "longitude": 15.8988,
      "timezone": 1
    }
  },
  {
    "model": "ports.port",
    "pk": 10,
    "fields": {
      "name": "Le Havre",
      "country": "France",
      "latitude": 49.4919,
      "longitude": 0.1194,
      "timezone": 1
    }
  },
  {
    "model": "ports.port",
    "pk": 11,
    "fields": {
      "name": "Barcelona",
      "country": "Spain",
      "latitude": 41.3575,
      "longitude": 2.1656,
      "timezone": 1
    }
  },
  {
    "model": "ports.port",
    "pk": 12,
    "fields": {
      "name": "Marsaxlokk",
      "country": "Malta",
      "latitude": 35.8200,
      "longitude": 14.5439,
      "timezone": 1
    }
  },
  {
    "model": "ports.port",
    "pk": 13,
    "fields": {
      "name": "Genoa",
      "country": "Italy",
      "latitude": 44.4072,
      "longitude": 8.9340,
      "timezone": 1
    }
  },
  {
    "model": "ports.port",
    "pk": 14,
    "fields": {
      "name": "Gdansk",
      "country": "Poland",
      "latitude": 54.3961,
      "longitude": 18.6789,
      "timezone": 1
    }
  },
  {
    "model": "ports.port",
    "pk": 15,
    "fields": {
      "name": "Southampton",
      "country": "United Kingdom",
      "latitude": 50.8967,
      "longitude": -1.3970,
      "timezone": 0
    }
  },
  {
    "model": "ports.port",
    "pk": 16,
    "fields": {
      "name": "Marseille-Fos",
      "country": "France",
      "latitude": 43.4298,
      "longitude": 4.8703,
      "timezone": 1
    }
  },
  {
    "model": "ports.port",
    "pk": 17,
    "fields": {
      "name": "Zeebrugge",
      "country": "Belgium",
      "latitude": 51.3458,
      "longitude": 3.1889,
      "timezone": 1
    }
  },
  {
    "model": "ports.port",
    "pk": 18,
    "fields": {
      "name": "Constanta",
      "country": "Romania",
      "latitude": 44.1197,
      "longitude": 28.6402,
      "timezone": 2
    }
  },
  {
    "model": "ports.port",
    "pk": 19,
    "fields": {
      "name": "Sines",
      "country": "Portugal",
      "latitude": 37.9531,
      "longitude": -8.8725,
      "timezone": 0
    }
  },
  {
    "model": "ports.port",
    "pk": 20,
    "fields": {
      "name": "Dublin",
      "country": "Ireland",
      "latitude": 53.3470,
      "longitude": -6.1990,
      "timezone": 0
    }
  },
  {
    "model": "ports.port",
    "pk": 21,
    "fields": {
      "name": "Lisbon",
      "country": "Portugal",
      "latitude": 38.70775,
      "longitude": -9.13659,
      "timezone": 0
    }
  },
  {
    "model": "ports.port",
    "pk": 22,
    "fields": {
      "name": "Bilbao",
      "country": "Spain",
      "latitude": 43.3486,
      "longitude": -3.0360,
      "timezone": 1
    }
  },
  {
    "model": "ports.port",
    "pk": 23,
    "fields": {
      "name": "Nantes",
      "country": "France",
      "latitude": 47.2025,
      "longitude": -1.5604,
      "timezone": 1
    }
  },
  {
    "model": "ports.port",
    "pk": 24,
    "fields": {
      "name": "Bordeaux",
      "country": "France",
      "latitude": 44.8378,
      "longitude": -0.5792,
      "timezone": 1
    }
  },
  {
    "model": "ports.port",
    "pk": 25,
    "fields": {
      "name": "London Gateway",
      "country": "United Kingdom",
      "latitude": 51.5284,
      "longitude": 0.4485,
      "timezone": 0
    }
  },
  {
    "model": "ports.port",
    "pk": 26,
    "fields": {
      "name": "Liverpool",
      "country": "United Kingdom",
      "latitude": 53.4390,
      "longitude": -3.0039,
      "timezone": 0
    }
  },
  {
    "model": "ports.port",
    "pk": 27,
    "fields": {
      "name": "Glasgow",
      "country": "United Kingdom",
      "latitude": 55.8569,
      "longitude": -4.2965,
      "timezone": 0
    }
  },
  {
    "model": "ports.port",
    "pk": 28,
    "fields": {
      "name": "Oslo",
      "country": "Norway",
      "latitude": 59.9045,
      "longitude": 10.7410,
      "timezone": 1
    }
  },
  {
    "model": "ports.port",
    "pk": 29,
    "fields": {
      "name": "Copenhagen",
      "country": "Denmark",
      "latitude": 55.6761,
      "longitude": 12.5683,
      "timezone": 1
    }
  },
  {
    "model": "ports.port",
    "pk": 30,
    "fields": {
      "name": "Stockholm",
      "country": "Sweden",
      "latitude": 59.3293,
      "longitude": 18.0686,
      "timezone": 1
    }
  },
  {
    "model": "ports.port",
    "pk": 31,
    "fields": {
      "name": "Helsinki",
      "country": "Finland",
      "latitude": 60.1695,
      "longitude": 24.9354,
      "timezone": 2
    }
  },
  {
    "model": "ports.port",
    "pk": 32,
    "fields": {
      "name": "Tallinn",
      "country": "Estonia",
      "latitude": 59.4370,
      "longitude": 24.7536,
      "timezone": 2
    }
  },
  {
    "model": "ports.port",
    "pk": 33,
    "fields": {
      "name": "Riga",
      "country": "Latvia",
      "latitude": 56.9496,
      "longitude": 24.1052,
      "timezone": 2
    }
  },
  {
    "model": "ports.port",
    "pk": 34,
    "fields": {
      "name": "Klaipeda",
      "country": "Lithuania",
      "latitude": 55.7118,
      "longitude": 21.1442,
      "timezone": 2
    }
  },
  {
    "model": "ports.port",
    "pk": 35,
    "fields": {
      "name": "St. Petersburg",
      "country": "Russia",
      "latitude": 59.9311,
      "longitude": 30.3609,
      "timezone": 3
    }
  },
  {
    "model": "ports.port",
    "pk": 36,
    "fields": {
      "name": "Rostock",
      "country": "Germany",
      "latitude": 54.0833,
      "longitude": 12.1333,
      "timezone": 1
    }
  },
  {
    "model": "ports.port",
    "pk": 37,
    "fields": {
      "name": "Naples",
      "country": "Italy",
      "latitude": 40.8359,
      "longitude": 14.2488,
      "timezone": 1
    }
  },
  {
    "model": "ports.port",
    "pk": 38,
    "fields": {
      "name": "Livorno",
      "country": "Italy",
      "latitude": 43.5517,
      "longitude": 10.3015,
      "timezone": 1
    }
  },
  {
    "model": "ports.port",
    "pk": 39,
    "fields": {
      "name": "Trieste",
      "country": "Italy",
      "latitude": 45.6495,
      "longitude": 13.7768,
      "timezone": 1
    }
  },
  {
    "model": "ports.port",
    "pk": 40,
    "fields": {
      "name": "Koper",
      "country": "Slovenia",
      "latitude": 45.5494,
      "longitude": 13.7291,
      "timezone": 1
    }
  },
  {
    "model": "ports.port",
    "pk": 41,
    "fields": {
      "name": "Rijeka",
      "country": "Croatia",
      "latitude": 45.3275,
      "longitude": 14.4447,
      "timezone": 1
    }
  },
  {
    "model": "ports.port",
    "pk": 42,
    "fields": {
      "name": "Split",
      "country": "Croatia",
      "latitude": 43.5081,
      "longitude": 16.4402,
      "timezone": 1
    }
  },
  {
    "model": "ports.port",
    "pk": 43,
    "fields": {
      "name": "Durres",
      "country": "Albania",
      "latitude": 41.3129,
      "longitude": 19.4589,
      "timezone": 1
    }
  },
  {
    "model": "ports.port",
    "pk": 44,
    "fields": {
      "name": "Bari",
      "country": "Italy",
      "latitude": 41.1340,
      "longitude": 16.8529,
      "timezone": 1
    }
  },
  {
    "model": "ports.port",
    "pk": 45,
    "fields": {
      "name": "Valletta",
      "country": "Malta",
      "latitude": 35.9042,
      "longitude": 14.5186,
      "timezone": 1
    }
  },
  {
    "model": "ports.port",
    "pk": 46,
    "fields": {
      "name": "Tunis",
      "country": "Tunisia",
      "latitude": 36.8065,
      "longitude": 10.1815,
      "timezone": 1
    }
  },
  {
    "model": "ports.port",
    "pk": 47,
    "fields": {
      "name": "Casablanca",
      "country": "Morocco",
      "latitude": 33.5883,
      "longitude": -7.6114,
      "timezone": 0
    }
  },
  {
    "model": "ports.port",
    "pk": 48,
    "fields": {
      "name": "Tangier",
      "country": "Morocco",
      "latitude": 35.7876,
      "longitude": -5.8115,
      "timezone": 0
    }
  },
  {
    "model": "ports.port",
    "pk": 49,
    "fields": {
      "name": "Oran",
      "country": "Algeria",
      "latitude": 35.7001,
      "longitude": -0.6358,
      "timezone": 1
    }
  },
  {
    "model": "ports.port",
    "pk": 50,
    "fields": {
      "name": "Algiers",
      "country": "Algeria",
      "latitude": 36.7538,
      "longitude": 3.0588,
      "timezone": 1
    }
  },
  {
    "model": "ports.port",
    "pk": 51,
    "fields": {
      "name": "Tripoli",
      "country": "Libya",
      "latitude": 32.8752,
      "longitude": 13.1875,
      "timezone": 2
    }
  },
  {
    "model": "ports.port",
    "pk": 52,
    "fields": {
      "name": "Alexandria",
      "country": "Egypt",
      "latitude": 31.2001,
      "longitude": 29.9187,
      "timezone": 2
    }
  },
  {
    "model": "ports.port",
    "pk": 53,
    "fields": {
      "name": "Port Said",
      "country": "Egypt",
      "latitude": 31.2584,
      "longitude": 32.2858,
      "timezone": 2
    }
  },
  {
    "model": "ports.port",
    "pk": 54,
    "fields": {
      "name": "Limassol",
      "country": "Cyprus",
      "latitude": 34.6677,
      "longitude": 33.0232,
      "timezone": 2
    }
  },
  {
    "model": "ports.port",
    "pk": 55,
    "fields": {
      "name": "Beirut",
      "country": "Lebanon",
      "latitude": 33.9000,
      "longitude": 35.5000,
      "timezone": 2
    }
  },
  {
    "model": "ports.port",
    "pk": 56,
    "fields": {
      "name": "Haifa",
      "country": "Israel",
      "latitude": 32.8251,
      "longitude": 34.9825,
      "timezone": 2
    }
  },
  {
    "model": "ports.port",
    "pk": 57,
    "fields": {
      "name": "Izmir",
      "country": "Turkey",
      "latitude": 38.4192,
      "longitude": 27.1287,
      "timezone": 3
    }
  },
  {
    "model": "ports.port",
    "pk": 58,
    "fields": {
      "name": "Istanbul",
      "country": "Turkey",
      "latitude": 41.0082,
      "longitude": 28.9784,
      "timezone": 3
    }
  },
  {
    "model": "ports.port",
    "pk": 59,
    "fields": {
      "name": "Odessa",
      "country": "Ukraine",
      "latitude": 46.4829,
      "longitude": 30.7123,
      "timezone": 3
    }
  },
  {
    "model": "ports.port",
    "pk": 60,
    "fields": {
      "name": "Varna",
      "country": "Bulgaria",
      "latitude": 43.2047,
      "longitude": 27.9103,
      "timezone": 2
    }
  },
  {
    "model": "ports.port",
    "pk": 61,
    "fields": {
      "name": "Thessaloniki",
      "country": "Greece",
      "latitude": 40.6387,
      "longitude": 22.9431,
      "timezone": 2
    }
  },
  {
    "model": "ports.port",
    "pk": 62,
    "fields": {
      "name": "Ancona",
      "country": "Italy",
      "latitude": 43.6062,
      "longitude": 13.5135,
      "timezone": 1
    }
  },
  {
    "model": "ports.port",
    "pk": 63,
    "fields": {
      "name": "Venice",
      "country": "Italy",
      "latitude": 45.4371,
      "longitude": 12.3327,
      "timezone": 1
    }
  },
  {
    "model": "ports.port",
    "pk": 64,
    "fields": {
      "name": "Ravenna",
      "country": "Italy",
      "latitude": 44.4172,
      "longitude": 12.2030,
      "timezone": 1
    }
  },
  {
    "model": "ports.port",
    "pk": 65,
    "fields": {
      "name": "Ploce",
      "country": "Croatia",
      "latitude": 43.0470,
      "longitude": 17.4330,
      "timezone": 1
    }
  },
  {
    "model": "ports.port",
    "pk": 66,
    "fields": {
      "name": "Sarande",
      "country": "Albania",
      "latitude": 39.8700,
      "longitude": 20.0000,
      "timezone": 1
    }
  },
  {
    "model": "ports.port",
    "pk": 67,
    "fields": {
      "name": "Tivat",
      "country": "Montenegro",
      "latitude": 42.4333,
      "longitude": 18.6833,
      "timezone": 1
    }
  },
  {
    "model": "ports.port",
    "pk": 68,
    "fields": {
      "name": "Bar",
      "country": "Montenegro",
      "latitude": 42.1000,
      "longitude": 19.1000,
      "timezone": 1
    }
  },
  {
    "model": "ports.port",
    "pk": 69,
    "fields": {
      "name": "Dubrovnik",
      "country": "Croatia",
      "latitude": 42.6403,
      "longitude": 18.1137,
      "timezone": 1
    }
  },
  {
    "model": "ports.port",
    "pk": 70,
    "fields": {
      "name": "Zadar",
      "country": "Croatia",
      "latitude": 44.1197,
      "longitude": 15.2314,
      "timezone": 1
    }
  },
  {
    "model": "ports.port",
    "pk": 71,
    "fields": {
      "name": "Pula",
      "country": "Croatia",
      "latitude": 44.8683,
      "longitude": 13.8481,
      "timezone": 1
    }
  },
  {
    "model": "ports.port",
    "pk": 72,
    "fields": {
      "name": "Gda≈Ñsk",
      "country": "Poland",
      "latitude": 54.3961,
      "longitude": 18.6789,
      "timezone": 1
    }
  },
  {
    "model": "ports.port",
    "pk": 73,
    "fields": {
      "name": "Szczecin",
      "country": "Poland",
      "latitude": 53.4333,
      "longitude": 14.5667,
      "timezone": 1
    }
  },
  {
    "model": "ports.port",
    "pk": 74,
    "fields": {
      "name": "Kaliningrad",
      "country": "Russia",
      "latitude": 54.7100,
      "longitude": 20.4500,
      "timezone": 2
    }
  },
  {
    "model": "ports.port",
    "pk": 75,
    "fields": {
      "name": "Gothenburg",
      "country": "Sweden",
      "latitude": 57.7089,
      "longitude": 11.9746,
      "timezone": 1
    }
  },
  {
    "model": "ports.port",
    "pk": 76,
    "fields": {
      "name": "Malmo",
      "country": "Sweden",
      "latitude": 55.6049,
      "longitude": 13.0038,
      "timezone": 1
    }
  },
  {
    "model": "ports.port",
    "pk": 77,
    "fields": {
      "name": "Aarhus",
      "country": "Denmark",
      "latitude": 56.1629,
      "longitude": 10.2039,
      "timezone": 1
    }
  },
  {
    "model": "ports.port",
    "pk": 78,
    "fields": {
      "name": "Stavanger",
      "country": "Norway",
      "latitude": 58.9699,
      "longitude": 5.7331,
      "timezone": 1
    }
  },
  {
    "model": "ports.port",
    "pk": 79,
    "fields": {
      "name": "Bergen",
      "country": "Norway",
      "latitude": 60.3913,
      "longitude": 5.3221,
      "timezone": 1
    }
  },
  {
    "model": "ports.port",
    "pk": 80,
    "fields": {
      "name": "Trondheim",
      "country": "Norway",
      "latitude": 63.4305,
      "longitude": 10.3951,
      "timezone": 1
    }
  },
  {
    "model": "ports.port",
    "pk": 81,
    "fields": {
      "name": "Kristiansand",
      "country": "Norway",
      "latitude": 58.1599,
      "longitude": 7.9950,
      "timezone": 1
    }
  },
  {
    "model": "ports.port",
    "pk": 82,
    "fields": {
      "name": "Drammen",
      "country": "Norway",
      "latitude": 59.7439,
      "longitude": 10.2040,
      "timezone": 1
    }
  },
  {
    "model": "ports.port",
    "pk": 83,
    "fields": {
      "name": "Mariehamn",
      "country": "Finland",
      "latitude": 60.0984,
      "longitude": 19.9348,
      "timezone": 2
    }
  },
  {
    "model": "ports.port",
    "pk": 84,
    "fields": {
      "name": "Turku",
      "country": "Finland",
      "latitude": 60.4518,
      "longitude": 22.2666,
      "timezone": 2
    }
  },
  {
    "model": "ports.port",
    "pk": 85,
    "fields": {
      "name": "Kotka",
      "country": "Finland",
      "latitude": 60.4667,
      "longitude": 26.9333,
      "timezone": 2
    }
  },
  {
    "model": "ports.port",
    "pk": 86,
    "fields": {
      "name": "Parnu",
      "country": "Estonia",
      "latitude": 58.3846,
      "longitude": 24.5008,
      "timezone": 2
    }
  },
  {
    "model": "ports.port",
    "pk": 87,
    "fields": {
      "name": "Liepaja",
      "country": "Latvia",
      "latitude": 56.5126,
      "longitude": 21.0090,
      "timezone": 2
    }
  },
  {
    "model": "ports.port",
    "pk": 88,
    "fields": {
      "name": "Ventspils",
      "country": "Latvia",
      "latitude": 57.3917,
      "longitude": 21.5739,
      "timezone": 2
    }
  },
  {
    "model": "ports.port",
    "pk": 89,
    "fields": {
      "name": "Paldiski",
      "country": "Estonia",
      "latitude": 59.3569,
      "longitude": 24.0531,
      "timezone": 2
    }
  },
  {
    "model": "ports.port",
    "pk": 90,
    "fields": {
      "name": "Kiel",
      "country": "Germany",
      "latitude": 54.3233,
      "longitude": 10.1394,
      "timezone": 1
    }
  },
  {
    "model": "ports.port",
    "pk": 91,
    "fields": {
      "name": "Luebeck",
      "country": "Germany",
      "latitude": 53.8689,
      "longitude": 10.6866,
      "timezone": 1
    }
  },
  {
    "model": "ports.port",
    "pk": 92,
    "fields": {
      "name": "Sassnitz",
      "country": "Germany",
      "latitude": 54.5126,
      "longitude": 13.6339,
      "timezone": 1
    }
  },
  {
    "model": "ports.port",
    "pk": 93,
    "fields": {
      "name": "Stralen",
      "country": "Germany",
      "latitude": 53.9211,
      "longitude": 13.4093,
      "timezone": 1
    }
  },
  {
    "model": "ports.port",
    "pk": 94,
    "fields": {
      "name": "Trelleborg",
      "country": "Sweden",
      "latitude": 55.3750,
      "longitude": 13.1556,
      "timezone": 1
    }
  },
  {
    "model": "ports.port",
    "pk": 95,
    "fields": {
      "name": "Split Croatia",
      "country": "Croatia",
      "latitude": 43.5081,
      "longitude": 16.4402,
      "timezone": 1
    }
  },
  {
    "model": "ports.port",
    "pk": 96,
    "fields": {
      "name": "Venice Italy",
      "country": "Italy",
      "latitude": 45.4371,
      "longitude": 12.3327,
      "timezone": 1
    }
  },
  {
    "model": "ports.port",
    "pk": 97,
    "fields": {
      "name": "Gdansk Poland",
      "country": "Poland",
      "latitude": 54.3961,
      "longitude": 18.6789,
      "timezone": 1
    }
  },
  {
    "model": "ports.port",
    "pk": 98,
    "fields": {
      "name": "Rostock Germany",
      "country": "Germany",
      "latitude": 54.0833,
      "longitude": 12.1333,
      "timezone": 1
    }
  },
  {
    "model": "ports.port",
    "pk": 99,
    "fields": {
      "name": "Drammen Norway",
      "country": "Norway",
      "latitude": 59.7439,
      "longitude": 10.2040,
      "timezone": 1
    }
  }
]