[
  {
    "model": "ports.port",
    "pk": 1,
    "fields": {
      "name": "Rotterdam",
      "country": "Netherlands",
      "latitude": 51.9473,
      "longitude": 4.1442,
      "timezone": 1
    }
  },
  {
    "model": "ports.port",
    "pk": 2,
    "fields": {
      "name": "Antwerp",
      "country": "Belgium",
      "latitude": 51.2584,
      "longitude": 4.3710,
      "timezone": 1
    }
  },
  {
    "model": "ports.port",
    "pk": 3,
    "fields": {
      "name": "Hamburg",
      "country": "Germany",
      "latitude": 53.5453,
      "longitude": 9.9953,
      "timezone": 1
    }
  },
  {
    "model": "ports.port",
    "pk": 4,
    "fields": {
      "name": "Valencia",
      "country": "Spain",
      "latitude": 39.4483,
      "longitude": -0.3075,
      "timezone": 1
    }
  },
  {
    "model": "ports.port",
    "pk": 5,
    "fields": {
      "name": "Piraeus",
      "country": "Greece",
      "latitude": 37.9380,
      "longitude": 23.6341,
      "timezone": 2
    }
  },
  {
    "model": "ports.port",
    "pk": 6,
    "fields": {
      "name": "Algeciras",
      "country": "Spain",
      "latitude": 36.1309,
      "longitude": -5.4364,
      "timezone": 1
    }
  },
  {
    "model": "ports.port",
    "pk": 7,
    "fields": {
      "name": "Bremerhaven",
      "country": "Germany",
      "latitude": 53.5667,
      "longitude": 8.5833,
      "timezone": 1
    }
  },
  {
    "model": "ports.port",
    "pk": 8,
    "fields": {
      "name": "Felixstowe",
      "country": "United Kingdom",
      "latitude": 51.9517,
      "longitude": 1.3250,
      "timezone": 0
    }
  },
  {
    "model": "ports.port",
    "pk": 9,
    "fields": {
      "name": "Gioia Tauro",
      "country": "Italy",
      "latitude": 38.4422,
      "longitude": 15.8988,
      "timezone": 1
    }
  },
  {
    "model": "ports.port",
    "pk": 10,
    "fields": {
      "name": "Le Havre",
      "country": "France",
      "latitude": 49.4919,
      "longitude": 0.1194,
      "timezone": 1
    }
  },
  {
    "model": "ports.port",
    "pk": 11,
    "fields": {
      "name": "Barcelona",
      "country": "Spain",
      "latitude": 41.3575,
      "longitude": 2.1656,
      "timezone": 1
    }
  },
  {
    "model": "ports.port",
    "pk": 12,
    "fields": {
      "name": "Marsaxlokk",
      "country": "Malta",
      "latitude": 35.8200,
      "longitude": 14.5439,
      "timezone": 1
    }
  },
  {
    "model": "ports.port",
    "pk": 13,
    "fields": {
      "name": "Genoa",
      "country": "Italy",
      "latitude": 44.4072,
      "longitude": 8.9340,
      "timezone": 1
    }
  },
  {
    "model": "ports.port",
    "pk": 14,
    "fields": {
      "name": "Gdansk",
      "country": "Poland",
      "latitude": 54.3961,
      "longitude": 18.6789,
      "timezone": 1
    }
  },
  {
    "model": "ports.port",
    "pk": 15,
    "fields": {
      "name": "Southampton",
      "country": "United Kingdom",
      "latitude": 50.8967,
      "longitude": -1.3970,
      "timezone": 0
    }
  },
  {
    "model": "ports.port",
    "pk": 16,
    "fields": {
      "name": "Marseille-Fos",
      "country": "France",
      "latitude": 43.4298,
      "longitude": 4.8703,
      "timezone": 1
    }
  },
  {
    "model": "ports.port",
    "pk": 17,
    "fields": {
      "name": "Zeebrugge",
      "country": "Belgium",
      "latitude": 51.3458,
      "longitude": 3.1889,
      "timezone": 1
    }
  },
  {
    "model": "ports.port",
    "pk": 18,
    "fields": {
      "name": "Constanta",
      "country": "Romania",
      "latitude": 44.1197,
      "longitude": 28.6402,
      "timezone": 2
    }
  },
  {
    "model": "ports.port",
    "pk": 19,
    "fields": {
      "name": "Sines",
      "country": "Portugal",
      "latitude": 37.9531,
      "longitude": -8.8725,
      "timezone": 0
    }
  },
  {
    "model": "ports.port",
    "pk": 20,
    "fields": {
      "name": "Dublin",
      "country": "Ireland",
      "latitude": 53.3470,
      "longitude": -6.1990,
      "timezone": 0
    }
  }
]